[
  {
    "facility_id": "7fc27bfd-0aa7-45c7-8457-3af7a9856dca",
    "facility_name": "Austin UndergroundStorage",
    "address": "301 W 2nd St, Austin, USA",
    "longitude": -97.7431,
    "latitude": 30.2672,
    "facility_type": "Pipelines",
    "sensors": [
      {
        "sensor_id": "49d195cc-86f0-4cbf-ad95-eda99c021d61",
        "address": "301 W 2nd St, Austin, USA",
        "longitude": -97.73943187175276,
        "latitude": 30.271056589931213,
        "sensor_type": "ParticulateMatter",
        "data": "145.11",
        "last_signal_timestamp": null,
        "signal_interval": 60
      },
      {
        "sensor_id": "3703b9f7-5f3a-4a54-bdc4-f34297aed99f",
        "address": "301 W 2nd St, Austin, USA",
        "longitude": -97.7437308341926,
        "latitude": 30.26358912088238,
        "sensor_type": "LevelIndicator",
        "data": "4.92",
        "last_signal_timestamp": null,
        "signal_interval": 45
      },
      {
        "sensor_id": "2fd36d74-059f-4d28-a2d0-c852083ce009",
        "address": "301 W 2nd St, Austin, USA",
        "longitude": -97.74060307739776,
        "latitude": 30.264411047812587,
        "sensor_type": "GasDetection",
        "data": "16.69",
        "last_signal_timestamp": null,
        "signal_interval": 45
      }
    ]
  },
  {
    "facility_id": "9a34200c-798c-4bff-8c0b-015b98ff38d4",
    "facility_name": "Cairo TankFarm",
    "address": "1 Al Ahram Street, Cairo, Egypt",
    "longitude": 31.2357,
    "latitude": 30.0444,
    "facility_type": "DrillingRig",
    "sensors": [
      {
        "sensor_id": "34094d06-704e-47b7-adba-70991e53e82e",
        "address": "1 Al Ahram Street, Cairo, Egypt",
        "longitude": 31.229013225074436,
        "latitude": 30.040207389497606,
        "sensor_type": "LevelIndicator",
        "data": "4.36",
        "last_signal_timestamp": null,
        "signal_interval": 45
      },
      {
        "sensor_id": "eea1172a-83df-4ee3-a145-ed88d55046cf",
        "address": "1 Al Ahram Street, Cairo, Egypt",
        "longitude": 31.226882353924367,
        "latitude": 30.047287229446212,
        "sensor_type": "GasComposition",
        "data": "95.23",
        "last_signal_timestamp": null,
        "signal_interval": 30
      },
      {
        "sensor_id": "39a949e2-f365-4c0a-b004-1479da6cfe4e",
        "address": "1 Al Ahram Street, Cairo, Egypt",
        "longitude": 31.24458540464596,
        "latitude": 30.046937007506525,
        "sensor_type": "WaterContent",
        "data": "0.84",
        "last_signal_timestamp": null,
        "signal_interval": 60
      },
      {
        "sensor_id": "4c801230-9ee2-4e04-80eb-410e53349aff",
        "address": "1 Al Ahram Street, Cairo, Egypt",
        "longitude": 31.241149752421524,
        "latitude": 30.041298469982966,
        "sensor_type": "WaterContent",
        "data": "0.84",
        "last_signal_timestamp": null,
        "signal_interval": 60
      },
      {
        "sensor_id": "20eb29fd-a810-4b60-a8be-40cfed613e5e",
        "address": "1 Al Ahram Street, Cairo, Egypt",
        "longitude": 31.24150322635983,
        "latitude": 30.039679843425468,
        "sensor_type": "Volume",
        "data": "582.76",
        "last_signal_timestamp": null,
        "signal_interval": 15
      }
    ]
  },
  {
    "facility_id": "69826536-5cf4-4164-9151-de60de70a9df",
    "facility_name": "Harare DrillingRig",
    "address": "Samora Machel Avenue, Harare, Zimbabwe",
    "longitude": 31.0522,
    "latitude": -17.8292,
    "facility_type": "ExportTerminal",
    "sensors": [
      {
        "sensor_id": "9741659e-d021-4288-85ec-6c3e93e55f72",
        "address": "Samora Machel Avenue, Harare, Zimbabwe",
        "longitude": 31.060515311176633,
        "latitude": -17.838139760007852,
        "sensor_type": "Vibration",
        "data": "3.17",
        "last_signal_timestamp": null,
        "signal_interval": 30
      },
      {
        "sensor_id": "57a99951-1a41-4005-84f8-c092e68b53f6",
        "address": "Samora Machel Avenue, Harare, Zimbabwe",
        "longitude": 31.044789993918037,
        "latitude": -17.837681231515848,
        "sensor_type": "Flow",
        "data": "238.42",
        "last_signal_timestamp": null,
        "signal_interval": 15
      },
      {
        "sensor_id": "d66fee37-a77b-4364-8c37-203ea4fe3332",
        "address": "Samora Machel Avenue, Harare, Zimbabwe",
        "longitude": 31.054192984220848,
        "latitude": -17.822118733732417,
        "sensor_type": "Flow",
        "data": "204.32",
        "last_signal_timestamp": null,
        "signal_interval": 15
      },
      {
        "sensor_id": "7fff446b-bf25-4c97-9c82-6ee10d8485a9",
        "address": "Samora Machel Avenue, Harare, Zimbabwe",
        "longitude": 31.053637956715452,
        "latitude": -17.835987670300277,
        "sensor_type": "LiquidComposition",
        "data": "95.57",
        "last_signal_timestamp": null,
        "signal_interval": 30
      },
      {
        "sensor_id": "69160d8d-4e19-432d-b3c7-4ac64d8abec3",
        "address": "Samora Machel Avenue, Harare, Zimbabwe",
        "longitude": 31.05803577282724,
        "latitude": -17.82289011679967,
        "sensor_type": "HydrogenSulfideContent",
        "data": "1.9",
        "last_signal_timestamp": null,
        "signal_interval": 60
      },
      {
        "sensor_id": "5913736f-c8e5-49a3-abc7-6a775e4c39a0",
        "address": "Samora Machel Avenue, Harare, Zimbabwe",
        "longitude": 31.052898462704363,
        "latitude": -17.8326568245596,
        "sensor_type": "LiquidComposition",
        "data": "95.94",
        "last_signal_timestamp": null,
        "signal_interval": 30
      },
      {
        "sensor_id": "9f07c195-b79f-489c-b521-77f5db3ff496",
        "address": "Samora Machel Avenue, Harare, Zimbabwe",
        "longitude": 31.060871766240695,
        "latitude": -17.838062708119033,
        "sensor_type": "Pressure",
        "data": "1013.55",
        "last_signal_timestamp": null,
        "signal_interval": 15
      },
      {
        "sensor_id": "b29766dc-88fd-4231-b1e1-a57579aa4324",
        "address": "Samora Machel Avenue, Harare, Zimbabwe",
        "longitude": 31.05453033960602,
        "latitude": -17.824640961124175,
        "sensor_type": "ParticulateMatter",
        "data": "54.56",
        "last_signal_timestamp": null,
        "signal_interval": 60
      },
      {
        "sensor_id": "2741e5ac-4e1d-4bfc-a6e1-55e63f0a7dbd",
        "address": "Samora Machel Avenue, Harare, Zimbabwe",
        "longitude": 31.05508536114144,
        "latitude": -17.821271390179223,
        "sensor_type": "Flow",
        "data": "288.47",
        "last_signal_timestamp": null,
        "signal_interval": 15
      },
      {
        "sensor_id": "58eb77f4-ac20-4914-8791-0f48a60f7823",
        "address": "Samora Machel Avenue, Harare, Zimbabwe",
        "longitude": 31.054189781080222,
        "latitude": -17.832513277479936,
        "sensor_type": "Temperature",
        "data": "22.49",
        "last_signal_timestamp": null,
        "signal_interval": 15
      }
    ]
  },
  {
    "facility_id": "be9aaed4-f1b5-4fdd-8105-dfaa9e8205fc",
    "facility_name": "Helsinki ExportTerminal",
    "address": "Mannerheimintie 1, Helsinki, Finland",
    "longitude": 24.9384,
    "latitude": 60.1699,
    "facility_type": "DrillingRig",
    "sensors": [
      {
        "sensor_id": "9e53e627-4643-4321-9fd1-2665a454f9e8",
        "address": "Mannerheimintie 1, Helsinki, Finland",
        "longitude": 24.931680394041685,
        "latitude": 60.16054308378415,
        "sensor_type": "PowerConsumption",
        "data": "519.65",
        "last_signal_timestamp": null,
        "signal_interval": 45
      },
      {
        "sensor_id": "cded3b95-4029-43bb-8f51-a7ddf8f3e903",
        "address": "Mannerheimintie 1, Helsinki, Finland",
        "longitude": 24.93191311824419,
        "latitude": 60.172765729175055,
        "sensor_type": "Flow",
        "data": "268.6",
        "last_signal_timestamp": null,
        "signal_interval": 15
      },
      {
        "sensor_id": "4e197c7c-74c4-4694-97db-d84f6308cf52",
        "address": "Mannerheimintie 1, Helsinki, Finland",
        "longitude": 24.934082433603475,
        "latitude": 60.16381721617356,
        "sensor_type": "Humidity",
        "data": "50.99",
        "last_signal_timestamp": null,
        "signal_interval": 15
      },
      {
        "sensor_id": "dd17e4c2-4416-49c9-80f7-09409392c78b",
        "address": "Mannerheimintie 1, Helsinki, Finland",
        "longitude": 24.938127505583232,
        "latitude": 60.17796026824416,
        "sensor_type": "Volume",
        "data": "438.78",
        "last_signal_timestamp": null,
        "signal_interval": 15
      },
      {
        "sensor_id": "67c18ab9-d6e4-49fe-9947-1c6adf0b8967",
        "address": "Mannerheimintie 1, Helsinki, Finland",
        "longitude": 24.933289283945054,
        "latitude": 60.17516952908145,
        "sensor_type": "Noise",
        "data": "60.8",
        "last_signal_timestamp": null,
        "signal_interval": 30
      },
      {
        "sensor_id": "8b661530-0f74-4433-bf30-276e28669d57",
        "address": "Mannerheimintie 1, Helsinki, Finland",
        "longitude": 24.938222001521474,
        "latitude": 60.164054312723316,
        "sensor_type": "LiquidComposition",
        "data": "97.7",
        "last_signal_timestamp": null,
        "signal_interval": 30
      },
      {
        "sensor_id": "4b8e3519-5901-4bcc-8e1d-a309bbd1267b",
        "address": "Mannerheimintie 1, Helsinki, Finland",
        "longitude": 24.934168459581212,
        "latitude": 60.17710175438617,
        "sensor_type": "GasComposition",
        "data": "96.16",
        "last_signal_timestamp": null,
        "signal_interval": 30
      }
    ]
  },
  {
    "facility_id": "06c4834b-5870-47d2-be59-4282cc87d577",
    "facility_name": "Lyon ImportTerminal",
    "address": "Place Bellecour 1, Lyon, France",
    "longitude": 4.8357,
    "latitude": 45.764,
    "facility_type": "UndergroundStorage",
    "sensors": [
      {
        "sensor_id": "345ed102-51e0-47a7-a71b-7807f59026ef",
        "address": "Place Bellecour 1, Lyon, France",
        "longitude": 4.828549339956151,
        "latitude": 45.773138730646494,
        "sensor_type": "OxygenContent",
        "data": "20.13",
        "last_signal_timestamp": null,
        "signal_interval": 60
      },
      {
        "sensor_id": "cc03cbe5-14e8-4f67-949f-56ca96065a8a",
        "address": "Place Bellecour 1, Lyon, France",
        "longitude": 4.826569321786687,
        "latitude": 45.76306622824709,
        "sensor_type": "LiquidComposition",
        "data": "95.7",
        "last_signal_timestamp": null,
        "signal_interval": 30
      }
    ]
  }
]