[
  {
    "facility_id": "c014a736-4aa4-4131-8a45-212f549251dd",
    "facility_name": "New Orleans TankFarm",
    "address": "1300 Perdido St, New Orleans, USA",
    "longitude": -90.0715,
    "latitude": 29.9511,
    "facility_type": "TankFarm",
    "sensors": [
      {
        "sensor_id": "17e90ec1-7d64-4568-adb9-2af7cac8fb0f",
        "address": "1300 Perdido St, New Orleans, USA",
        "longitude": -90.06803701568263,
        "latitude": 29.952971101969606,
        "sensor_type": "LevelIndicator",
        "data": null,
        "last_updated": null
      },
      {
        "sensor_id": "662cacf5-a81b-4424-8f9e-31ed4581b896",
        "address": "1300 Perdido St, New Orleans, USA",
        "longitude": -90.07970690776416,
        "latitude": 29.95958811744882,
        "sensor_type": "OxygenContent",
        "data": null,
        "last_updated": null
      },
      {
        "sensor_id": "39622b68-664e-4f59-9519-cc0710cf757a",
        "address": "1300 Perdido St, New Orleans, USA",
        "longitude": -90.06912274949836,
        "latitude": 29.9516905610149,
        "sensor_type": "LiquidComposition",
        "data": null,
        "last_updated": null
      }
    ]
  },
  {
    "facility_id": "8e837afe-63f3-477d-b192-2b9690852c2f",
    "facility_name": "Philadelphia ImportTerminal",
    "address": "1401 JFK Blvd, Philadelphia, USA",
    "longitude": -75.1652,
    "latitude": 39.9526,
    "facility_type": "ImportTerminal",
    "sensors": [
      {
        "sensor_id": "967a334e-f0d0-4ccd-be77-4d9d618f7b0e",
        "address": "1401 JFK Blvd, Philadelphia, USA",
        "longitude": -75.16230272402647,
        "latitude": 39.94727396599434,
        "sensor_type": "LevelIndicator",
        "data": null,
        "last_updated": null
      },
      {
        "sensor_id": "a868605b-e071-4e10-a7e5-38484793c07f",
        "address": "1401 JFK Blvd, Philadelphia, USA",
        "longitude": -75.16411281037985,
        "latitude": 39.94447137755775,
        "sensor_type": "ParticulateMatter",
        "data": null,
        "last_updated": null
      },
      {
        "sensor_id": "24eb83cc-94d4-4fe2-aea5-8ac85a5ca2d5",
        "address": "1401 JFK Blvd, Philadelphia, USA",
        "longitude": -75.16671054017654,
        "latitude": 39.950225315962285,
        "sensor_type": "ValveStatus",
        "data": null,
        "last_updated": null
      },
      {
        "sensor_id": "490be394-feff-410d-8563-f0e8417b9dcd",
        "address": "1401 JFK Blvd, Philadelphia, USA",
        "longitude": -75.17411751325426,
        "latitude": 39.960837749256825,
        "sensor_type": "LeakDetection",
        "data": null,
        "last_updated": null
      }
    ]
  },
  {
    "facility_id": "b16efc8f-88e3-4a8f-bbca-2cff3f011d6f",
    "facility_name": "Budapest Pipelines",
    "address": "Andr\u00e1ssy \u00fat 1, Budapest, Hungary",
    "longitude": 19.0402,
    "latitude": 47.4979,
    "facility_type": "TankFarm",
    "sensors": [
      {
        "sensor_id": "d47350f0-289b-4d31-b175-45daee69edd5",
        "address": "Andr\u00e1ssy \u00fat 1, Budapest, Hungary",
        "longitude": 19.035925879376613,
        "latitude": 47.50684472211687,
        "sensor_type": "Flow",
        "data": null,
        "last_updated": null
      },
      {
        "sensor_id": "b4e93951-fdea-410d-ab46-0f0ed60801c8",
        "address": "Andr\u00e1ssy \u00fat 1, Budapest, Hungary",
        "longitude": 19.0349674710616,
        "latitude": 47.48917958568076,
        "sensor_type": "PumpStatus",
        "data": null,
        "last_updated": null
      },
      {
        "sensor_id": "2428caed-d578-4228-9e4c-addb8afdff76",
        "address": "Andr\u00e1ssy \u00fat 1, Budapest, Hungary",
        "longitude": 19.0348835790066,
        "latitude": 47.49887106494052,
        "sensor_type": "WaterContent",
        "data": null,
        "last_updated": null
      }
    ]
  },
  {
    "facility_id": "46a3828d-e6c4-4f99-a696-a859e1675dc2",
    "facility_name": "Oslo ImportTerminal",
    "address": "Karl Johans gate 1, Oslo, Norway",
    "longitude": 10.7522,
    "latitude": 59.9139,
    "facility_type": "ExportTerminal",
    "sensors": [
      {
        "sensor_id": "027cf428-a5d9-40e7-8b38-fc9f2ec40f7c",
        "address": "Karl Johans gate 1, Oslo, Norway",
        "longitude": 10.745344090486364,
        "latitude": 59.9237954526594,
        "sensor_type": "WaterContent",
        "data": null,
        "last_updated": null
      },
      {
        "sensor_id": "edb3c271-c62f-4bce-837c-49758ad669e7",
        "address": "Karl Johans gate 1, Oslo, Norway",
        "longitude": 10.761087411882404,
        "latitude": 59.912208457648795,
        "sensor_type": "LevelIndicator",
        "data": null,
        "last_updated": null
      },
      {
        "sensor_id": "021d54b6-0e64-4582-82a0-b18b76c54535",
        "address": "Karl Johans gate 1, Oslo, Norway",
        "longitude": 10.747058717381524,
        "latitude": 59.91526599417819,
        "sensor_type": "PumpStatus",
        "data": null,
        "last_updated": null
      },
      {
        "sensor_id": "91352ce5-762a-43e6-99b7-886679b10910",
        "address": "Karl Johans gate 1, Oslo, Norway",
        "longitude": 10.751069921930323,
        "latitude": 59.92127512725096,
        "sensor_type": "Humidity",
        "data": null,
        "last_updated": null
      },
      {
        "sensor_id": "f213da4e-7711-43b7-b83d-cd942bf80792",
        "address": "Karl Johans gate 1, Oslo, Norway",
        "longitude": 10.748844526839035,
        "latitude": 59.909334516390395,
        "sensor_type": "Pressure",
        "data": null,
        "last_updated": null
      },
      {
        "sensor_id": "6f4b4852-fb1a-4356-a906-9af7079274de",
        "address": "Karl Johans gate 1, Oslo, Norway",
        "longitude": 10.758712374614083,
        "latitude": 59.91973735682354,
        "sensor_type": "Humidity",
        "data": null,
        "last_updated": null
      }
    ]
  },
  {
    "facility_id": "c84aa5bc-34ad-428f-9213-4d1a125148d8",
    "facility_name": "Nairobi Pipelines",
    "address": "City Hall Way, Nairobi, Kenya",
    "longitude": 36.8219,
    "latitude": -1.2921,
    "facility_type": "ExportTerminal",
    "sensors": [
      {
        "sensor_id": "51fcb2e9-d8fd-4ef4-a3e5-261442b6ca2e",
        "address": "City Hall Way, Nairobi, Kenya",
        "longitude": 36.82714002766987,
        "latitude": -1.2895352211293498,
        "sensor_type": "LiquidComposition",
        "data": null,
        "last_updated": null
      },
      {
        "sensor_id": "059bcab5-43bc-4c53-a6e8-d8f308c51df7",
        "address": "City Hall Way, Nairobi, Kenya",
        "longitude": 36.81545474802601,
        "latitude": -1.2852372787295636,
        "sensor_type": "GasDetection",
        "data": null,
        "last_updated": null
      },
      {
        "sensor_id": "9eda24bc-5eb3-4e26-ad0d-709f3143da60",
        "address": "City Hall Way, Nairobi, Kenya",
        "longitude": 36.8198014680199,
        "latitude": -1.2873153052670412,
        "sensor_type": "Flow",
        "data": null,
        "last_updated": null
      }
    ]
  },
  {
    "facility_id": "38a74fcf-5104-4836-b60f-13fa60479b06",
    "facility_name": "Berlin DrillingRig",
    "address": "Unter den Linden 77, Berlin, Germany",
    "longitude": 13.405,
    "latitude": 52.52,
    "facility_type": "UndergroundStorage",
    "sensors": [
      {
        "sensor_id": "5599b317-3b74-4570-801a-8cc17477f7ce",
        "address": "Unter den Linden 77, Berlin, Germany",
        "longitude": 13.414256016896486,
        "latitude": 52.5297101849682,
        "sensor_type": "CarbonDioxideContent",
        "data": null,
        "last_updated": null
      },
      {
        "sensor_id": "a816a797-716b-47bb-ab8b-80aed7085341",
        "address": "Unter den Linden 77, Berlin, Germany",
        "longitude": 13.412557962279225,
        "latitude": 52.52336676340691,
        "sensor_type": "LiquidComposition",
        "data": null,
        "last_updated": null
      },
      {
        "sensor_id": "fee042c4-536d-482d-bb11-6b81be403fe7",
        "address": "Unter den Linden 77, Berlin, Germany",
        "longitude": 13.413781723454026,
        "latitude": 52.51784736382737,
        "sensor_type": "Pressure",
        "data": null,
        "last_updated": null
      }
    ]
  },
  {
    "facility_id": "cff997a8-c5c7-43ba-9e91-2d5742e273c5",
    "facility_name": "Minneapolis ExportTerminal",
    "address": "350 S 5th St, Minneapolis, USA",
    "longitude": -93.265,
    "latitude": 44.9778,
    "facility_type": "UndergroundStorage",
    "sensors": [
      {
        "sensor_id": "a1ce90e2-33a7-4323-8cc5-49812dd9ad52",
        "address": "350 S 5th St, Minneapolis, USA",
        "longitude": -93.26646891316997,
        "latitude": 44.984113008587066,
        "sensor_type": "HydrogenSulfideContent",
        "data": null,
        "last_updated": null
      },
      {
        "sensor_id": "58b1573e-5448-43e6-a88e-163072fe5e6d",
        "address": "350 S 5th St, Minneapolis, USA",
        "longitude": -93.26663592611676,
        "latitude": 44.976907016161405,
        "sensor_type": "PumpStatus",
        "data": null,
        "last_updated": null
      },
      {
        "sensor_id": "4de9c7af-2ab8-437c-8023-2024f55e4346",
        "address": "350 S 5th St, Minneapolis, USA",
        "longitude": -93.27195210759145,
        "latitude": 44.986772922983505,
        "sensor_type": "ValveStatus",
        "data": null,
        "last_updated": null
      },
      {
        "sensor_id": "9d5308b1-edf4-449d-a138-4c798c82139f",
        "address": "350 S 5th St, Minneapolis, USA",
        "longitude": -93.27303693440726,
        "latitude": 44.98133167854021,
        "sensor_type": "PowerConsumption",
        "data": null,
        "last_updated": null
      }
    ]
  },
  {
    "facility_id": "02edbbf3-3ed2-4f09-a5b4-6e8c0bf1bb52",
    "facility_name": "Lyon UndergroundStorage",
    "address": "Place Bellecour 1, Lyon, France",
    "longitude": 4.8357,
    "latitude": 45.764,
    "facility_type": "UndergroundStorage",
    "sensors": [
      {
        "sensor_id": "3c6e8484-a668-4b83-96df-329a633aebeb",
        "address": "Place Bellecour 1, Lyon, France",
        "longitude": 4.836076019840419,
        "latitude": 45.76483767484374,
        "sensor_type": "Pressure",
        "data": null,
        "last_updated": null
      },
      {
        "sensor_id": "e4f0d8c7-e5c4-4b0e-afcf-7dfb529e3074",
        "address": "Place Bellecour 1, Lyon, France",
        "longitude": 4.845032672373857,
        "latitude": 45.76660387705555,
        "sensor_type": "HydrogenSulfideContent",
        "data": null,
        "last_updated": null
      }
    ]
  },
  {
    "facility_id": "db4310f0-f063-41b9-9a4c-22f0d9f9eef6",
    "facility_name": "Copenhagen DrillingRig",
    "address": "R\u00e5dhuspladsen 1, Copenhagen, Denmark",
    "longitude": 12.5683,
    "latitude": 55.6761,
    "facility_type": "TankFarm",
    "sensors": [
      {
        "sensor_id": "89fc2182-2d0a-47bf-82dc-3c6f9892b265",
        "address": "R\u00e5dhuspladsen 1, Copenhagen, Denmark",
        "longitude": 12.56279546741762,
        "latitude": 55.672247636451296,
        "sensor_type": "Vibration",
        "data": null,
        "last_updated": null
      },
      {
        "sensor_id": "14dad695-5aee-40bc-9e9f-7e26f2e6b5b4",
        "address": "R\u00e5dhuspladsen 1, Copenhagen, Denmark",
        "longitude": 12.562291740043912,
        "latitude": 55.681740810094226,
        "sensor_type": "ParticulateMatter",
        "data": null,
        "last_updated": null
      },
      {
        "sensor_id": "351e1871-71d1-46d3-a1ce-a2fbffd280dc",
        "address": "R\u00e5dhuspladsen 1, Copenhagen, Denmark",
        "longitude": 12.574387628931621,
        "latitude": 55.67888241303157,
        "sensor_type": "Temperature",
        "data": null,
        "last_updated": null
      },
      {
        "sensor_id": "4b3472ff-81c2-4a1d-a65c-2b397e19deb3",
        "address": "R\u00e5dhuspladsen 1, Copenhagen, Denmark",
        "longitude": 12.571796849065299,
        "latitude": 55.67067117554245,
        "sensor_type": "OxygenContent",
        "data": null,
        "last_updated": null
      },
      {
        "sensor_id": "0ccb5295-b53e-4007-92aa-61720293eed4",
        "address": "R\u00e5dhuspladsen 1, Copenhagen, Denmark",
        "longitude": 12.574482427885094,
        "latitude": 55.66916728667179,
        "sensor_type": "Noise",
        "data": null,
        "last_updated": null
      }
    ]
  },
  {
    "facility_id": "ae8d4f20-88fb-42c9-a1a9-047f776f0228",
    "facility_name": "Lusaka TankFarm",
    "address": "Independence Avenue, Lusaka, Zambia",
    "longitude": 28.3228,
    "latitude": -15.3875,
    "facility_type": "ProcessingPlant",
    "sensors": [
      {
        "sensor_id": "25b5592d-ef11-4985-8d68-eb593dc1cf82",
        "address": "Independence Avenue, Lusaka, Zambia",
        "longitude": 28.327511063409357,
        "latitude": -15.394306566313833,
        "sensor_type": "CarbonDioxideContent",
        "data": null,
        "last_updated": null
      },
      {
        "sensor_id": "2db11cc8-3710-4bf6-a8a5-c050fd080001",
        "address": "Independence Avenue, Lusaka, Zambia",
        "longitude": 28.32123354194359,
        "latitude": -15.380059015190016,
        "sensor_type": "LeakDetection",
        "data": null,
        "last_updated": null
      },
      {
        "sensor_id": "e2571d61-d3af-41c8-88bc-4ad1c8dd9152",
        "address": "Independence Avenue, Lusaka, Zambia",
        "longitude": 28.33096688244714,
        "latitude": -15.378763854558347,
        "sensor_type": "Humidity",
        "data": null,
        "last_updated": null
      },
      {
        "sensor_id": "abaf1e51-f8fe-40b3-b41d-f67f1a5e1c69",
        "address": "Independence Avenue, Lusaka, Zambia",
        "longitude": 28.33009847085253,
        "latitude": -15.395340273531938,
        "sensor_type": "GasComposition",
        "data": null,
        "last_updated": null
      },
      {
        "sensor_id": "9600b259-43ea-4735-8d15-c9452c049d72",
        "address": "Independence Avenue, Lusaka, Zambia",
        "longitude": 28.31290436471754,
        "latitude": -15.382423482367466,
        "sensor_type": "CompressorStatus",
        "data": null,
        "last_updated": null
      },
      {
        "sensor_id": "68aa38e6-6168-4fe3-a3f0-d98359b5a4d5",
        "address": "Independence Avenue, Lusaka, Zambia",
        "longitude": 28.33132604507441,
        "latitude": -15.389422838306569,
        "sensor_type": "CarbonDioxideContent",
        "data": null,
        "last_updated": null
      }
    ]
  }
]